[
  {
    "id": "101210101",
    "cityEn": "hangzhou",
    "cityZh": "\u676d\u5dde",
    "provinceEn": "zhejiang",
    "provinceZh": "\u6d59\u6c5f",
    "leaderEn": "hangzhou",
    "leaderZh": "\u676d\u5dde",
    "lat": "30.287459",
    "lon": "120.153576"
  },
  {
    "id": "101210102",
    "cityEn": "xiaoshan",
    "cityZh": "\u8427\u5c71",
    "provinceEn": "zhejiang",
    "provinceZh": "\u6d59\u6c5f",
    "leaderEn": "hangzhou",
    "leaderZh": "\u676d\u5dde",
    "lat": "30.162932",
    "lon": "120.27069"
  },
  {
    "id": "101210103",
    "cityEn": "tonglu",
    "cityZh": "\u6850\u5e90",
    "provinceEn": "zhejiang",
    "provinceZh": "\u6d59\u6c5f",
    "leaderEn": "hangzhou",
    "leaderZh": "\u676d\u5dde",
    "lat": "29.797437",
    "lon": "119.685045"
  },
  {
    "id": "101210104",
    "cityEn": "chunan",
    "cityZh": "\u6df3\u5b89",
    "provinceEn": "zhejiang",
    "provinceZh": "\u6d59\u6c5f",
    "leaderEn": "hangzhou",
    "leaderZh": "\u676d\u5dde",
    "lat": "29.604177",
    "lon": "119.044276"
  },
  {
    "id": "101210105",
    "cityEn": "jiande",
    "cityZh": "\u5efa\u5fb7",
    "provinceEn": "zhejiang",
    "provinceZh": "\u6d59\u6c5f",
    "leaderEn": "hangzhou",
    "leaderZh": "\u676d\u5dde",
    "lat": "29.472284",
    "lon": "119.279089"
  },
  {
    "id": "101210106",
    "cityEn": "yuhang",
    "cityZh": "\u4f59\u676d",
    "provinceEn": "zhejiang",
    "provinceZh": "\u6d59\u6c5f",
    "leaderEn": "hangzhou",
    "leaderZh": "\u676d\u5dde",
    "lat": "30.421187",
    "lon": "120.301737"
  },
  {
    "id": "101210107",
    "cityEn": "linan",
    "cityZh": "\u4e34\u5b89",
    "provinceEn": "zhejiang",
    "provinceZh": "\u6d59\u6c5f",
    "leaderEn": "hangzhou",
    "leaderZh": "\u676d\u5dde",
    "lat": "30.231153",
    "lon": "119.715101"
  },
  {
    "id": "101210108",
    "cityEn": "fuyang",
    "cityZh": "\u5bcc\u9633",
    "provinceEn": "zhejiang",
    "provinceZh": "\u6d59\u6c5f",
    "leaderEn": "hangzhou",
    "leaderZh": "\u676d\u5dde",
    "lat": "30.049871",
    "lon": "119.949869"
  },
  {
    "id": "101210109",
    "cityEn": "shangcheng",
    "cityZh": "\u4e0a\u57ce",
    "provinceEn": "zhejiang",
    "provinceZh": "\u6d59\u6c5f",
    "leaderEn": "hangzhou",
    "leaderZh": "\u676d\u5dde",
    "lat": "30.250236",
    "lon": "120.171465"
  },
  {
    "id": "101210110",
    "cityEn": "xiacheng",
    "cityZh": "\u4e0b\u57ce",
    "provinceEn": "zhejiang",
    "provinceZh": "\u6d59\u6c5f",
    "leaderEn": "hangzhou",
    "leaderZh": "\u676d\u5dde",
    "lat": "30.276271",
    "lon": "120.172763"
  },
  {
    "id": "101210111",
    "cityEn": "jianggan",
    "cityZh": "\u6c5f\u5e72",
    "provinceEn": "zhejiang",
    "provinceZh": "\u6d59\u6c5f",
    "leaderEn": "hangzhou",
    "leaderZh": "\u676d\u5dde",
    "lat": "30.266603",
    "lon": "120.202633"
  },
  {
    "id": "101210112",
    "cityEn": "gongshu",
    "cityZh": "\u62f1\u5885",
    "provinceEn": "zhejiang",
    "provinceZh": "\u6d59\u6c5f",
    "leaderEn": "hangzhou",
    "leaderZh": "\u676d\u5dde",
    "lat": "30.314697",
    "lon": "120.150053"
  },
  {
    "id": "101210113",
    "cityEn": "xihu",
    "cityZh": "\u897f\u6e56",
    "provinceEn": "zhejiang",
    "provinceZh": "\u6d59\u6c5f",
    "leaderEn": "hangzhou",
    "leaderZh": "\u676d\u5dde",
    "lat": "30.272934",
    "lon": "120.147376"
  },
  {
    "id": "101210114",
    "cityEn": "binjiang",
    "cityZh": "\u6ee8\u6c5f",
    "provinceEn": "zhejiang",
    "provinceZh": "\u6d59\u6c5f",
    "leaderEn": "hangzhou",
    "leaderZh": "\u676d\u5dde",
    "lat": "30.206615",
    "lon": "120.21062"
  },
  {
    "id": "101210201",
    "cityEn": "huzhou",
    "cityZh": "\u6e56\u5dde",
    "provinceEn": "zhejiang",
    "provinceZh": "\u6d59\u6c5f",
    "leaderEn": "huzhou",
    "leaderZh": "\u6e56\u5dde",
    "lat": "30.867198",
    "lon": "120.102398"
  },
  {
    "id": "101210202",
    "cityEn": "changxing",
    "cityZh": "\u957f\u5174",
    "provinceEn": "zhejiang",
    "provinceZh": "\u6d59\u6c5f",
    "leaderEn": "huzhou",
    "leaderZh": "\u6e56\u5dde",
    "lat": "31.00475",
    "lon": "119.910122"
  },
  {
    "id": "101210203",
    "cityEn": "anji",
    "cityZh": "\u5b89\u5409",
    "provinceEn": "zhejiang",
    "provinceZh": "\u6d59\u6c5f",
    "leaderEn": "huzhou",
    "leaderZh": "\u6e56\u5dde",
    "lat": "30.631974",
    "lon": "119.687891"
  },
  {
    "id": "101210204",
    "cityEn": "deqing",
    "cityZh": "\u5fb7\u6e05",
    "provinceEn": "zhejiang",
    "provinceZh": "\u6d59\u6c5f",
    "leaderEn": "huzhou",
    "leaderZh": "\u6e56\u5dde",
    "lat": "30.534927",
    "lon": "119.967662"
  },
  {
    "id": "101210205",
    "cityEn": "wuxing",
    "cityZh": "\u5434\u5174",
    "provinceEn": "zhejiang",
    "provinceZh": "\u6d59\u6c5f",
    "leaderEn": "huzhou",
    "leaderZh": "\u6e56\u5dde",
    "lat": "30.867252",
    "lon": "120.101416"
  },
  {
    "id": "101210206",
    "cityEn": "nanxun",
    "cityZh": "\u5357\u6d54",
    "provinceEn": "zhejiang",
    "provinceZh": "\u6d59\u6c5f",
    "leaderEn": "huzhou",
    "leaderZh": "\u6e56\u5dde",
    "lat": "30.872742",
    "lon": "120.417195"
  },
  {
    "id": "101210301",
    "cityEn": "jiaxing",
    "cityZh": "\u5609\u5174",
    "provinceEn": "zhejiang",
    "provinceZh": "\u6d59\u6c5f",
    "leaderEn": "jiaxing",
    "leaderZh": "\u5609\u5174",
    "lat": "30.762653",
    "lon": "120.750865"
  },
  {
    "id": "101210302",
    "cityEn": "jiashan",
    "cityZh": "\u5609\u5584",
    "provinceEn": "zhejiang",
    "provinceZh": "\u6d59\u6c5f",
    "leaderEn": "jiaxing",
    "leaderZh": "\u5609\u5174",
    "lat": "30.841352",
    "lon": "120.921871"
  },
  {
    "id": "101210303",
    "cityEn": "haining",
    "cityZh": "\u6d77\u5b81",
    "provinceEn": "zhejiang",
    "provinceZh": "\u6d59\u6c5f",
    "leaderEn": "jiaxing",
    "leaderZh": "\u5609\u5174",
    "lat": "30.525544",
    "lon": "120.688821"
  },
  {
    "id": "101210304",
    "cityEn": "tongxiang",
    "cityZh": "\u6850\u4e61",
    "provinceEn": "zhejiang",
    "provinceZh": "\u6d59\u6c5f",
    "leaderEn": "jiaxing",
    "leaderZh": "\u5609\u5174",
    "lat": "30.629065",
    "lon": "120.551085"
  },
  {
    "id": "101210305",
    "cityEn": "pinghu",
    "cityZh": "\u5e73\u6e56",
    "provinceEn": "zhejiang",
    "provinceZh": "\u6d59\u6c5f",
    "leaderEn": "jiaxing",
    "leaderZh": "\u5609\u5174",
    "lat": "30.698921",
    "lon": "121.014666"
  },
  {
    "id": "101210306",
    "cityEn": "haiyan",
    "cityZh": "\u6d77\u76d0",
    "provinceEn": "zhejiang",
    "provinceZh": "\u6d59\u6c5f",
    "leaderEn": "jiaxing",
    "leaderZh": "\u5609\u5174",
    "lat": "30.522223",
    "lon": "120.942017"
  },
  {
    "id": "101210307",
    "cityEn": "nanhu",
    "cityZh": "\u5357\u6e56",
    "provinceEn": "zhejiang",
    "provinceZh": "\u6d59\u6c5f",
    "leaderEn": "jiaxing",
    "leaderZh": "\u5609\u5174",
    "lat": "30.764652",
    "lon": "120.749953"
  },
  {
    "id": "101210308",
    "cityEn": "xiuzhou",
    "cityZh": "\u79c0\u6d32",
    "provinceEn": "zhejiang",
    "provinceZh": "\u6d59\u6c5f",
    "leaderEn": "jiaxing",
    "leaderZh": "\u5609\u5174",
    "lat": "30.763323",
    "lon": "120.720431"
  },
  {
    "id": "101210401",
    "cityEn": "ningbo",
    "cityZh": "\u5b81\u6ce2",
    "provinceEn": "zhejiang",
    "provinceZh": "\u6d59\u6c5f",
    "leaderEn": "ningbo",
    "leaderZh": "\u5b81\u6ce2",
    "lat": "29.868388",
    "lon": "121.549792"
  },
  {
    "id": "101210402",
    "cityEn": "haishu",
    "cityZh": "\u6d77\u66d9",
    "provinceEn": "zhejiang",
    "provinceZh": "\u6d59\u6c5f",
    "leaderEn": "ningbo",
    "leaderZh": "\u5b81\u6ce2",
    "lat": "29.874452",
    "lon": "121.539698"
  },
  {
    "id": "101210403",
    "cityEn": "cixi",
    "cityZh": "\u6148\u6eaa",
    "provinceEn": "zhejiang",
    "provinceZh": "\u6d59\u6c5f",
    "leaderEn": "ningbo",
    "leaderZh": "\u5b81\u6ce2",
    "lat": "30.177142",
    "lon": "121.248052"
  },
  {
    "id": "101210404",
    "cityEn": "yuyao",
    "cityZh": "\u4f59\u59da",
    "provinceEn": "zhejiang",
    "provinceZh": "\u6d59\u6c5f",
    "leaderEn": "ningbo",
    "leaderZh": "\u5b81\u6ce2",
    "lat": "30.045404",
    "lon": "121.156294"
  },
  {
    "id": "101210405",
    "cityEn": "fenghua",
    "cityZh": "\u5949\u5316",
    "provinceEn": "zhejiang",
    "provinceZh": "\u6d59\u6c5f",
    "leaderEn": "ningbo",
    "leaderZh": "\u5b81\u6ce2",
    "lat": "29.662348",
    "lon": "121.41089"
  },
  {
    "id": "101210406",
    "cityEn": "xiangshan",
    "cityZh": "\u8c61\u5c71",
    "provinceEn": "zhejiang",
    "provinceZh": "\u6d59\u6c5f",
    "leaderEn": "ningbo",
    "leaderZh": "\u5b81\u6ce2",
    "lat": "29.470206",
    "lon": "121.877091"
  },
  {
    "id": "101210407",
    "cityEn": "jiangdong",
    "cityZh": "\u6c5f\u4e1c",
    "provinceEn": "zhejiang",
    "provinceZh": "\u6d59\u6c5f",
    "leaderEn": "ningbo",
    "leaderZh": "\u5b81\u6ce2",
    "lat": "29.866819",
    "lon": "121.570383"
  },
  {
    "id": "101210408",
    "cityEn": "ninghai",
    "cityZh": "\u5b81\u6d77",
    "provinceEn": "zhejiang",
    "provinceZh": "\u6d59\u6c5f",
    "leaderEn": "ningbo",
    "leaderZh": "\u5b81\u6ce2",
    "lat": "29.299836",
    "lon": "121.432606"
  },
  {
    "id": "101210409",
    "cityEn": "jiangbei",
    "cityZh": "\u6c5f\u5317",
    "provinceEn": "zhejiang",
    "provinceZh": "\u6d59\u6c5f",
    "leaderEn": "ningbo",
    "leaderZh": "\u5b81\u6ce2",
    "lat": "29.888361",
    "lon": "121.559282"
  },
  {
    "id": "101210410",
    "cityEn": "beilun",
    "cityZh": "\u5317\u4ed1",
    "provinceEn": "zhejiang",
    "provinceZh": "\u6d59\u6c5f",
    "leaderEn": "ningbo",
    "leaderZh": "\u5b81\u6ce2",
    "lat": "29.90944",
    "lon": "121.831303"
  },
  {
    "id": "101210411",
    "cityEn": "yinzhou",
    "cityZh": "\u911e\u5dde",
    "provinceEn": "zhejiang",
    "provinceZh": "\u6d59\u6c5f",
    "leaderEn": "ningbo",
    "leaderZh": "\u5b81\u6ce2",
    "lat": "29.831662",
    "lon": "121.558436"
  },
  {
    "id": "101210412",
    "cityEn": "zhenhai",
    "cityZh": "\u9547\u6d77",
    "provinceEn": "zhejiang",
    "provinceZh": "\u6d59\u6c5f",
    "leaderEn": "ningbo",
    "leaderZh": "\u5b81\u6ce2",
    "lat": "29.952107",
    "lon": "121.713162"
  },
  {
    "id": "101210501",
    "cityEn": "yuecheng",
    "cityZh": "\u8d8a\u57ce",
    "provinceEn": "zhejiang",
    "provinceZh": "\u6d59\u6c5f",
    "leaderEn": "shaoxing",
    "leaderZh": "\u7ecd\u5174",
    "lat": "29.996993",
    "lon": "120.585315"
  },
  {
    "id": "101210502",
    "cityEn": "zhuji",
    "cityZh": "\u8bf8\u66a8",
    "provinceEn": "zhejiang",
    "provinceZh": "\u6d59\u6c5f",
    "leaderEn": "shaoxing",
    "leaderZh": "\u7ecd\u5174",
    "lat": "29.713662",
    "lon": "120.244326"
  },
  {
    "id": "101210503",
    "cityEn": "shangyu",
    "cityZh": "\u4e0a\u865e",
    "provinceEn": "zhejiang",
    "provinceZh": "\u6d59\u6c5f",
    "leaderEn": "shaoxing",
    "leaderZh": "\u7ecd\u5174",
    "lat": "30.016769",
    "lon": "120.874185"
  },
  {
    "id": "101210504",
    "cityEn": "xinchang",
    "cityZh": "\u65b0\u660c",
    "provinceEn": "zhejiang",
    "provinceZh": "\u6d59\u6c5f",
    "leaderEn": "shaoxing",
    "leaderZh": "\u7ecd\u5174",
    "lat": "29.501205",
    "lon": "120.905665"
  },
  {
    "id": "101210505",
    "cityEn": "shengzhou",
    "cityZh": "\u5d4a\u5dde",
    "provinceEn": "zhejiang",
    "provinceZh": "\u6d59\u6c5f",
    "leaderEn": "shaoxing",
    "leaderZh": "\u7ecd\u5174",
    "lat": "29.586606",
    "lon": "120.82888"
  },
  {
    "id": "101210506",
    "cityEn": "keqiao",
    "cityZh": "\u67ef\u6865",
    "provinceEn": "zhejiang",
    "provinceZh": "\u6d59\u6c5f",
    "leaderEn": "shaoxing",
    "leaderZh": "\u7ecd\u5174",
    "lat": "30.078038",
    "lon": "120.476075"
  },
  {
    "id": "101210507",
    "cityEn": "shaoxing",
    "cityZh": "\u7ecd\u5174",
    "provinceEn": "zhejiang",
    "provinceZh": "\u6d59\u6c5f",
    "leaderEn": "shaoxing",
    "leaderZh": "\u7ecd\u5174",
    "lat": "29.997117",
    "lon": "120.582112"
  },
  {
    "id": "101210601",
    "cityEn": "taizhou",
    "cityZh": "\u53f0\u5dde",
    "provinceEn": "zhejiang",
    "provinceZh": "\u6d59\u6c5f",
    "leaderEn": "taizhou",
    "leaderZh": "\u53f0\u5dde",
    "lat": "28.661378",
    "lon": "121.428599"
  },
  {
    "id": "101210603",
    "cityEn": "yuhuan",
    "cityZh": "\u7389\u73af",
    "provinceEn": "zhejiang",
    "provinceZh": "\u6d59\u6c5f",
    "leaderEn": "taizhou",
    "leaderZh": "\u53f0\u5dde",
    "lat": "28.12842",
    "lon": "121.232337"
  },
  {
    "id": "101210604",
    "cityEn": "sanmen",
    "cityZh": "\u4e09\u95e8",
    "provinceEn": "zhejiang",
    "provinceZh": "\u6d59\u6c5f",
    "leaderEn": "taizhou",
    "leaderZh": "\u53f0\u5dde",
    "lat": "29.118955",
    "lon": "121.376429"
  },
  {
    "id": "101210605",
    "cityEn": "tiantai",
    "cityZh": "\u5929\u53f0",
    "provinceEn": "zhejiang",
    "provinceZh": "\u6d59\u6c5f",
    "leaderEn": "taizhou",
    "leaderZh": "\u53f0\u5dde",
    "lat": "29.141126",
    "lon": "121.031227"
  },
  {
    "id": "101210606",
    "cityEn": "xianju",
    "cityZh": "\u4ed9\u5c45",
    "provinceEn": "zhejiang",
    "provinceZh": "\u6d59\u6c5f",
    "leaderEn": "taizhou",
    "leaderZh": "\u53f0\u5dde",
    "lat": "28.849213",
    "lon": "120.735074"
  },
  {
    "id": "101210607",
    "cityEn": "wenling",
    "cityZh": "\u6e29\u5cad",
    "provinceEn": "zhejiang",
    "provinceZh": "\u6d59\u6c5f",
    "leaderEn": "taizhou",
    "leaderZh": "\u53f0\u5dde",
    "lat": "28.368781",
    "lon": "121.373611"
  },
  {
    "id": "101210610",
    "cityEn": "linhai",
    "cityZh": "\u4e34\u6d77",
    "provinceEn": "zhejiang",
    "provinceZh": "\u6d59\u6c5f",
    "leaderEn": "taizhou",
    "leaderZh": "\u53f0\u5dde",
    "lat": "28.845441",
    "lon": "121.131229"
  },
  {
    "id": "101210611",
    "cityEn": "jiaojiang",
    "cityZh": "\u6912\u6c5f",
    "provinceEn": "zhejiang",
    "provinceZh": "\u6d59\u6c5f",
    "leaderEn": "taizhou",
    "leaderZh": "\u53f0\u5dde",
    "lat": "28.67615",
    "lon": "121.431049"
  },
  {
    "id": "101210612",
    "cityEn": "huangyan",
    "cityZh": "\u9ec4\u5ca9",
    "provinceEn": "zhejiang",
    "provinceZh": "\u6d59\u6c5f",
    "leaderEn": "taizhou",
    "leaderZh": "\u53f0\u5dde",
    "lat": "28.64488",
    "lon": "121.262138"
  },
  {
    "id": "101210613",
    "cityEn": "luqiao",
    "cityZh": "\u8def\u6865",
    "provinceEn": "zhejiang",
    "provinceZh": "\u6d59\u6c5f",
    "leaderEn": "taizhou",
    "leaderZh": "\u53f0\u5dde",
    "lat": "28.581799",
    "lon": "121.37292"
  },
  {
    "id": "101210701",
    "cityEn": "wenzhou",
    "cityZh": "\u6e29\u5dde",
    "provinceEn": "zhejiang",
    "provinceZh": "\u6d59\u6c5f",
    "leaderEn": "wenzhou",
    "leaderZh": "\u6e29\u5dde",
    "lat": "28.000575",
    "lon": "120.672111"
  },
  {
    "id": "101210702",
    "cityEn": "taishun",
    "cityZh": "\u6cf0\u987a",
    "provinceEn": "zhejiang",
    "provinceZh": "\u6d59\u6c5f",
    "leaderEn": "wenzhou",
    "leaderZh": "\u6e29\u5dde",
    "lat": "27.557309",
    "lon": "119.71624"
  },
  {
    "id": "101210703",
    "cityEn": "wencheng",
    "cityZh": "\u6587\u6210",
    "provinceEn": "zhejiang",
    "provinceZh": "\u6d59\u6c5f",
    "leaderEn": "wenzhou",
    "leaderZh": "\u6e29\u5dde",
    "lat": "27.789133",
    "lon": "120.09245"
  },
  {
    "id": "101210704",
    "cityEn": "pingyang",
    "cityZh": "\u5e73\u9633",
    "provinceEn": "zhejiang",
    "provinceZh": "\u6d59\u6c5f",
    "leaderEn": "wenzhou",
    "leaderZh": "\u6e29\u5dde",
    "lat": "27.6693",
    "lon": "120.564387"
  },
  {
    "id": "101210705",
    "cityEn": "ruian",
    "cityZh": "\u745e\u5b89",
    "provinceEn": "zhejiang",
    "provinceZh": "\u6d59\u6c5f",
    "leaderEn": "wenzhou",
    "leaderZh": "\u6e29\u5dde",
    "lat": "27.779321",
    "lon": "120.646171"
  },
  {
    "id": "101210706",
    "cityEn": "dongtou",
    "cityZh": "\u6d1e\u5934",
    "provinceEn": "zhejiang",
    "provinceZh": "\u6d59\u6c5f",
    "leaderEn": "wenzhou",
    "leaderZh": "\u6e29\u5dde",
    "lat": "27.836057",
    "lon": "121.156181"
  },
  {
    "id": "101210707",
    "cityEn": "yueqing",
    "cityZh": "\u4e50\u6e05",
    "provinceEn": "zhejiang",
    "provinceZh": "\u6d59\u6c5f",
    "leaderEn": "wenzhou",
    "leaderZh": "\u6e29\u5dde",
    "lat": "28.116083",
    "lon": "120.967147"
  },
  {
    "id": "101210708",
    "cityEn": "yongjia",
    "cityZh": "\u6c38\u5609",
    "provinceEn": "zhejiang",
    "provinceZh": "\u6d59\u6c5f",
    "leaderEn": "wenzhou",
    "leaderZh": "\u6e29\u5dde",
    "lat": "28.153886",
    "lon": "120.690968"
  },
  {
    "id": "101210709",
    "cityEn": "cangnan",
    "cityZh": "\u82cd\u5357",
    "provinceEn": "zhejiang",
    "provinceZh": "\u6d59\u6c5f",
    "leaderEn": "wenzhou",
    "leaderZh": "\u6e29\u5dde",
    "lat": "27.507743",
    "lon": "120.406256"
  },
  {
    "id": "101210710",
    "cityEn": "lucheng",
    "cityZh": "\u9e7f\u57ce",
    "provinceEn": "zhejiang",
    "provinceZh": "\u6d59\u6c5f",
    "leaderEn": "wenzhou",
    "leaderZh": "\u6e29\u5dde",
    "lat": "28.003352",
    "lon": "120.674231"
  },
  {
    "id": "101210711",
    "cityEn": "longwan",
    "cityZh": "\u9f99\u6e7e",
    "provinceEn": "zhejiang",
    "provinceZh": "\u6d59\u6c5f",
    "leaderEn": "wenzhou",
    "leaderZh": "\u6e29\u5dde",
    "lat": "27.970254",
    "lon": "120.763469"
  },
  {
    "id": "101210712",
    "cityEn": "ouhai",
    "cityZh": "\u74ef\u6d77",
    "provinceEn": "zhejiang",
    "provinceZh": "\u6d59\u6c5f",
    "leaderEn": "wenzhou",
    "leaderZh": "\u6e29\u5dde",
    "lat": "28.006444",
    "lon": "120.637145"
  },
  {
    "id": "101210801",
    "cityEn": "lishui",
    "cityZh": "\u4e3d\u6c34",
    "provinceEn": "zhejiang",
    "provinceZh": "\u6d59\u6c5f",
    "leaderEn": "lishui",
    "leaderZh": "\u4e3d\u6c34",
    "lat": "28.451993",
    "lon": "119.921786"
  },
  {
    "id": "101210802",
    "cityEn": "suichang",
    "cityZh": "\u9042\u660c",
    "provinceEn": "zhejiang",
    "provinceZh": "\u6d59\u6c5f",
    "leaderEn": "lishui",
    "leaderZh": "\u4e3d\u6c34",
    "lat": "28.5924",
    "lon": "119.27589"
  },
  {
    "id": "101210803",
    "cityEn": "longquan",
    "cityZh": "\u9f99\u6cc9",
    "provinceEn": "zhejiang",
    "provinceZh": "\u6d59\u6c5f",
    "leaderEn": "lishui",
    "leaderZh": "\u4e3d\u6c34",
    "lat": "28.069177",
    "lon": "119.132319"
  },
  {
    "id": "101210804",
    "cityEn": "jinyun",
    "cityZh": "\u7f19\u4e91",
    "provinceEn": "zhejiang",
    "provinceZh": "\u6d59\u6c5f",
    "leaderEn": "lishui",
    "leaderZh": "\u4e3d\u6c34",
    "lat": "28.654208",
    "lon": "120.078965"
  },
  {
    "id": "101210805",
    "cityEn": "qingtian",
    "cityZh": "\u9752\u7530",
    "provinceEn": "zhejiang",
    "provinceZh": "\u6d59\u6c5f",
    "leaderEn": "lishui",
    "leaderZh": "\u4e3d\u6c34",
    "lat": "28.135247",
    "lon": "120.291939"
  },
  {
    "id": "101210806",
    "cityEn": "yunhe",
    "cityZh": "\u4e91\u548c",
    "provinceEn": "zhejiang",
    "provinceZh": "\u6d59\u6c5f",
    "leaderEn": "lishui",
    "leaderZh": "\u4e3d\u6c34",
    "lat": "28.111077",
    "lon": "119.569458"
  },
  {
    "id": "101210807",
    "cityEn": "qingyuan",
    "cityZh": "\u5e86\u5143",
    "provinceEn": "zhejiang",
    "provinceZh": "\u6d59\u6c5f",
    "leaderEn": "lishui",
    "leaderZh": "\u4e3d\u6c34",
    "lat": "27.618231",
    "lon": "119.067233"
  },
  {
    "id": "101210808",
    "cityEn": "songyang",
    "cityZh": "\u677e\u9633",
    "provinceEn": "zhejiang",
    "provinceZh": "\u6d59\u6c5f",
    "leaderEn": "lishui",
    "leaderZh": "\u4e3d\u6c34",
    "lat": "28.449937",
    "lon": "119.485292"
  },
  {
    "id": "101210809",
    "cityEn": "jingning",
    "cityZh": "\u666f\u5b81",
    "provinceEn": "zhejiang",
    "provinceZh": "\u6d59\u6c5f",
    "leaderEn": "lishui",
    "leaderZh": "\u4e3d\u6c34",
    "lat": "27.977247",
    "lon": "119.634669"
  },
  {
    "id": "101210810",
    "cityEn": "liandou",
    "cityZh": "\u83b2\u90fd",
    "provinceEn": "zhejiang",
    "provinceZh": "\u6d59\u6c5f",
    "leaderEn": "lishui",
    "leaderZh": "\u4e3d\u6c34",
    "lat": "28.451103",
    "lon": "119.922293"
  },
  {
    "id": "101210901",
    "cityEn": "jinhua",
    "cityZh": "\u91d1\u534e",
    "provinceEn": "zhejiang",
    "provinceZh": "\u6d59\u6c5f",
    "leaderEn": "jinhua",
    "leaderZh": "\u91d1\u534e",
    "lat": "29.089524",
    "lon": "119.649506"
  },
  {
    "id": "101210902",
    "cityEn": "pujiang",
    "cityZh": "\u6d66\u6c5f",
    "provinceEn": "zhejiang",
    "provinceZh": "\u6d59\u6c5f",
    "leaderEn": "jinhua",
    "leaderZh": "\u91d1\u534e",
    "lat": "29.451254",
    "lon": "119.893363"
  },
  {
    "id": "101210903",
    "cityEn": "lanxi",
    "cityZh": "\u5170\u6eaa",
    "provinceEn": "zhejiang",
    "provinceZh": "\u6d59\u6c5f",
    "leaderEn": "jinhua",
    "leaderZh": "\u91d1\u534e",
    "lat": "29.210065",
    "lon": "119.460521"
  },
  {
    "id": "101210904",
    "cityEn": "yiwu",
    "cityZh": "\u4e49\u4e4c",
    "provinceEn": "zhejiang",
    "provinceZh": "\u6d59\u6c5f",
    "leaderEn": "jinhua",
    "leaderZh": "\u91d1\u534e",
    "lat": "29.306863",
    "lon": "120.074911"
  },
  {
    "id": "101210905",
    "cityEn": "dongyang",
    "cityZh": "\u4e1c\u9633",
    "provinceEn": "zhejiang",
    "provinceZh": "\u6d59\u6c5f",
    "leaderEn": "jinhua",
    "leaderZh": "\u91d1\u534e",
    "lat": "29.262546",
    "lon": "120.23334"
  },
  {
    "id": "101210906",
    "cityEn": "wuyi",
    "cityZh": "\u6b66\u4e49",
    "provinceEn": "zhejiang",
    "provinceZh": "\u6d59\u6c5f",
    "leaderEn": "jinhua",
    "leaderZh": "\u91d1\u534e",
    "lat": "28.896563",
    "lon": "119.819159"
  },
  {
    "id": "101210907",
    "cityEn": "yongkang",
    "cityZh": "\u6c38\u5eb7",
    "provinceEn": "zhejiang",
    "provinceZh": "\u6d59\u6c5f",
    "leaderEn": "jinhua",
    "leaderZh": "\u91d1\u534e",
    "lat": "28.895293",
    "lon": "120.036328"
  },
  {
    "id": "101210908",
    "cityEn": "panan",
    "cityZh": "\u78d0\u5b89",
    "provinceEn": "zhejiang",
    "provinceZh": "\u6d59\u6c5f",
    "leaderEn": "jinhua",
    "leaderZh": "\u91d1\u534e",
    "lat": "29.052627",
    "lon": "120.44513"
  },
  {
    "id": "101210909",
    "cityEn": "wucheng",
    "cityZh": "\u5a7a\u57ce",
    "provinceEn": "zhejiang",
    "provinceZh": "\u6d59\u6c5f",
    "leaderEn": "jinhua",
    "leaderZh": "\u91d1\u534e",
    "lat": "29.082607",
    "lon": "119.652579"
  },
  {
    "id": "101210910",
    "cityEn": "jindong",
    "cityZh": "\u91d1\u4e1c",
    "provinceEn": "zhejiang",
    "provinceZh": "\u6d59\u6c5f",
    "leaderEn": "jinhua",
    "leaderZh": "\u91d1\u534e",
    "lat": "29.095835",
    "lon": "119.681264"
  },
  {
    "id": "101211001",
    "cityEn": "quzhou",
    "cityZh": "\u8862\u5dde",
    "provinceEn": "zhejiang",
    "provinceZh": "\u6d59\u6c5f",
    "leaderEn": "quzhou",
    "leaderZh": "\u8862\u5dde",
    "lat": "28.941708",
    "lon": "118.87263"
  },
  {
    "id": "101211002",
    "cityEn": "changshan",
    "cityZh": "\u5e38\u5c71",
    "provinceEn": "zhejiang",
    "provinceZh": "\u6d59\u6c5f",
    "leaderEn": "quzhou",
    "leaderZh": "\u8862\u5dde",
    "lat": "28.900039",
    "lon": "118.521654"
  },
  {
    "id": "101211003",
    "cityEn": "kaihua",
    "cityZh": "\u5f00\u5316",
    "provinceEn": "zhejiang",
    "provinceZh": "\u6d59\u6c5f",
    "leaderEn": "quzhou",
    "leaderZh": "\u8862\u5dde",
    "lat": "29.136503",
    "lon": "118.414435"
  },
  {
    "id": "101211004",
    "cityEn": "longyou",
    "cityZh": "\u9f99\u6e38",
    "provinceEn": "zhejiang",
    "provinceZh": "\u6d59\u6c5f",
    "leaderEn": "quzhou",
    "leaderZh": "\u8862\u5dde",
    "lat": "29.031364",
    "lon": "119.172525"
  },
  {
    "id": "101211005",
    "cityEn": "jiangshan",
    "cityZh": "\u6c5f\u5c71",
    "provinceEn": "zhejiang",
    "provinceZh": "\u6d59\u6c5f",
    "leaderEn": "quzhou",
    "leaderZh": "\u8862\u5dde",
    "lat": "28.734674",
    "lon": "118.627879"
  },
  {
    "id": "101211006",
    "cityEn": "qujiang",
    "cityZh": "\u8862\u6c5f",
    "provinceEn": "zhejiang",
    "provinceZh": "\u6d59\u6c5f",
    "leaderEn": "quzhou",
    "leaderZh": "\u8862\u5dde",
    "lat": "28.973195",
    "lon": "118.957683"
  },
  {
    "id": "101211007",
    "cityEn": "kecheng",
    "cityZh": "\u67ef\u57ce",
    "provinceEn": "zhejiang",
    "provinceZh": "\u6d59\u6c5f",
    "leaderEn": "quzhou",
    "leaderZh": "\u8862\u5dde",
    "lat": "28.944539",
    "lon": "118.873041"
  },
  {
    "id": "101211101",
    "cityEn": "zhoushan",
    "cityZh": "\u821f\u5c71",
    "provinceEn": "zhejiang",
    "provinceZh": "\u6d59\u6c5f",
    "leaderEn": "zhoushan",
    "leaderZh": "\u821f\u5c71",
    "lat": "30.016028",
    "lon": "122.106863"
  },
  {
    "id": "101211102",
    "cityEn": "shengsi",
    "cityZh": "\u5d4a\u6cd7",
    "provinceEn": "zhejiang",
    "provinceZh": "\u6d59\u6c5f",
    "leaderEn": "zhoushan",
    "leaderZh": "\u821f\u5c71",
    "lat": "30.727166",
    "lon": "122.457809"
  },
  {
    "id": "101211104",
    "cityEn": "daishan",
    "cityZh": "\u5cb1\u5c71",
    "provinceEn": "zhejiang",
    "provinceZh": "\u6d59\u6c5f",
    "leaderEn": "zhoushan",
    "leaderZh": "\u821f\u5c71",
    "lat": "30.242865",
    "lon": "122.201132"
  },
  {
    "id": "101211105",
    "cityEn": "putuo",
    "cityZh": "\u666e\u9640",
    "provinceEn": "zhejiang",
    "provinceZh": "\u6d59\u6c5f",
    "leaderEn": "zhoushan",
    "leaderZh": "\u821f\u5c71",
    "lat": "29.945614",
    "lon": "122.301953"
  },
  {
    "id": "101211106",
    "cityEn": "dinghai",
    "cityZh": "\u5b9a\u6d77",
    "provinceEn": "zhejiang",
    "provinceZh": "\u6d59\u6c5f",
    "leaderEn": "zhoushan",
    "leaderZh": "\u821f\u5c71",
    "lat": "30.016423",
    "lon": "122.108496"
  }
]